[{"id":"430d0a00f964a5203e271fe3","name":"Brooklyn Bridge Park","contact":{"phone":"+12128033822","formattedPhone":"+1 212-803-3822","twitter":"nycparks"},"location":{"address":"Main St.","crossStreet":"Plymouth St.","lat":40.701593743002,"lng":-73.99592399597168,"distance":387,"postalCode":"11201","cc":"US","city":"Brooklyn","state":"NY","country":"United States","formattedAddress":["Main St. (Plymouth St.)","Brooklyn, NY 11201","United States"]},"categories":[{"id":"4bf58dd8d48988d163941735","name":"Park","pluralName":"Parks","shortName":"Park","icon":{"prefix":"https:\/\/ss1.4sqi.net\/img\/categories_v2\/parks_outdoors\/park_","suffix":".png"},"primary":true}],"verified":true,"stats":{"checkinsCount":27972,"usersCount":17463,"tipCount":137},"url":"http:\/\/nyc.gov\/parks","specials":{"count":0,"items":[]},"hereNow":{"count":3,"summary":"3 people here","groups":[{"type":"others","name":"Other people here","count":3,"items":[]}]},"referralId":"v-1406733638"},{"id":"503de4dce4b0857b003af5f7","name":"monkeyHut","contact":{},"location":{"lat":40.7,"lng":-74.0,"distance":0,"postalCode":"10004","cc":"US","city":"New York","state":"NY","country":"United States","formattedAddress":["New York, NY 10004","United States"]},"categories":[{"id":"4bf58dd8d48988d1e1931735","name":"Arcade","pluralName":"Arcades","shortName":"Arcade","icon":{"prefix":"https:\/\/ss1.4sqi.net\/img\/categories_v2\/arts_entertainment\/arcade_","suffix":".png"},"primary":true}],"verified":false,"stats":{"checkinsCount":24,"usersCount":16,"tipCount":4},"specials":{"count":0,"items":[]},"hereNow":{"count":0,"summary":"0 people here","groups":[]},"referralId":"v-1406733638"},{"id":"51eabef6498e10cf3aea7942","name":"Brooklyn Bridge Park - Pier 2","contact":{},"location":{"address":"Furman St","crossStreet":"Brooklyn Bridge Park Greenway","lat":40.69960818011829,"lng":-73.99791552594898,"distance":181,"cc":"US","city":"Brooklyn","state":"NY","country":"United States","formattedAddress":["Furman St (Brooklyn Bridge Park Greenway)","Brooklyn, NY","United States"]},"categories":[{"id":"4bf58dd8d48988d163941735","name":"Park","pluralName":"Parks","shortName":"Park","icon":{"prefix":"https:\/\/ss1.4sqi.net\/img\/categories_v2\/parks_outdoors\/park_","suffix":".png"},"primary":true}],"verified":false,"stats":{"checkinsCount":1010,"usersCount":819,"tipCount":5},"specials":{"count":0,"items":[]},"hereNow":{"count":1,"summary":"One person here","groups":[{"type":"others","name":"Other people here","count":1,"items":[]}]},"referralId":"v-1406733638"},{"id":"5374fa22498e33ddadb073b3","name":"Brooklyn Half Pre-Party 2014","contact":{},"location":{"address":"Pier 2","lat":40.69975665543904,"lng":-73.99940758211055,"distance":56,"cc":"US","city":"Brooklyn","state":"NY","country":"United States","formattedAddress":["Pier 2","Brooklyn, NY","United States"]},"categories":[{"id":"5267e4d9e4b0ec79466e48c7","name":"Festival","pluralName":"Festivals","shortName":"Festival","icon":{"prefix":"https:\/\/ss1.4sqi.net\/img\/categories_v2\/event\/default_","suffix":".png"},"primary":true}],"verified":false,"stats":{"checkinsCount":625,"usersCount":619,"tipCount":0},"specials":{"count":0,"items":[]},"hereNow":{"count":0,"summary":"0 people here","groups":[]},"referralId":"v-1406733638"},{"id":"42377700f964a52024201fe3","name":"Brooklyn Heights Promenade","contact":{},"location":{"address":"Columbia Heights","crossStreet":"btwn Remsen & Orange","lat":40.69829137715981,"lng":-73.99663209915161,"distance":342,"postalCode":"11201","cc":"US","city":"Brooklyn","state":"NY","country":"United States","formattedAddress":["Columbia Heights (btwn Remsen & Orange)","Brooklyn, NY 11201","United States"]},"categories":[{"id":"4bf58dd8d48988d163941735","name":"Park","pluralName":"Parks","shortName":"Park","icon":{"prefix":"https:\/\/ss1.4sqi.net\/img\/categories_v2\/parks_outdoors\/park_","suffix":".png"},"primary":true}],"verified":false,"stats":{"checkinsCount":18171,"usersCount":8761,"tipCount":116},"url":"http:\/\/nyharborparks.org\/visit\/brhe.html","specials":{"count":0,"items":[]},"hereNow":{"count":1,"summary":"One person here","groups":[{"type":"others","name":"Other people here","count":1,"items":[]}]},"referralId":"v-1406733638"}]